{
  "data": [
    { "id": "cu-001", "name": "국립현대미술관 서울", "addr": "서울 종로구 삼청로 30", "lat": 37.5788, "lng": 126.9803, "type": "미술관", "tel": "02-3701-9500", "homepage": "https://www.mmca.go.kr" },
    { "id": "cu-002", "name": "서울공예박물관", "addr": "서울 종로구 율곡로3길 4", "lat": 37.5764, "lng": 126.9849, "type": "박물관", "tel": "02-6450-7000", "homepage": "https://craftmuseum.seoul.go.kr" },
    { "id": "cu-003", "name": "세종문화회관", "addr": "서울 종로구 세종대로 175", "lat": 37.5726, "lng": 126.9769, "type": "공연장", "tel": "02-399-1000", "homepage": "https://www.sejongpac.or.kr" },
    { "id": "cu-004", "name": "아르코예술극장", "addr": "서울 종로구 동숭길 3", "lat": 37.5820, "lng": 127.0028, "type": "공연장", "tel": "02-760-4640", "homepage": "https://www.arko.or.kr" },
    { "id": "cu-005", "name": "정독도서관", "addr": "서울 종로구 북촌로5길 48", "lat": 37.5808, "lng": 126.9843, "type": "도서관", "tel": "02-2011-5799" },
    { "id": "cu-006", "name": "경복궁", "addr": "서울 종로구 사직로 161", "lat": 37.5796, "lng": 126.9770, "type": "고궁", "tel": "02-3700-3900", "homepage": "https://www.royalpalace.go.kr" },
    { "id": "cu-007", "name": "창덕궁", "addr": "서울 종로구 율곡로 99", "lat": 37.5792, "lng": 126.9910, "type": "고궁", "tel": "02-3668-2300", "homepage": "https://www.cdg.go.kr" },
    { "id": "cu-008", "name": "창경궁", "addr": "서울 종로구 창경궁로 185", "lat": 37.5787, "lng": 126.9951, "type": "고궁", "tel": "02-762-4868" },
    { "id": "cu-009", "name": "국립민속박물관", "addr": "서울 종로구 삼청로 37", "lat": 37.5793, "lng": 126.9784, "type": "박물관", "tel": "02-3704-3114", "homepage": "https://www.nfm.go.kr" },
    { "id": "cu-010", "name": "종로문화재단 서울돈화문국악당", "addr": "서울 종로구 돈화문로 1", "lat": 37.5754, "lng": 126.9917, "type": "공연장", "tel": "02-3210-3100", "homepage": "https://www.sdmc.or.kr" },
    { "id": "cu-011", "name": "마로니에공원 야외공연장", "addr": "서울 종로구 동숭길 1", "lat": 37.5815, "lng": 127.0024, "type": "공연장", "tel": "02-3396-2900" },
    { "id": "cu-012", "name": "서울역사박물관", "addr": "서울 종로구 새문안로 55", "lat": 37.5700, "lng": 126.9705, "type": "박물관", "tel": "02-724-0274", "homepage": "https://museum.seoul.go.kr" },
    { "id": "cu-013", "name": "서울도서관", "addr": "서울 종로구 세종대로 110", "lat": 37.5660, "lng": 126.9779, "type": "도서관", "tel": "02-120", "homepage": "https://lib.seoul.go.kr" },
    { "id": "cu-014", "name": "종로도서관", "addr": "서울 종로구 삼일대로 457", "lat": 37.5705, "lng": 126.9914, "type": "도서관", "tel": "02-2148-2670" },
    { "id": "cu-015", "name": "혜화문화체육센터", "addr": "서울 종로구 혜화동 1-17", "lat": 37.5840, "lng": 127.0003, "type": "문화체육시설", "tel": "02-2148-4630" },
    { "id": "cu-016", "name": "종로구민회관", "addr": "서울 종로구 삼봉로 43", "lat": 37.5735, "lng": 126.9790, "type": "공연장", "tel": "02-2148-1111" },
    { "id": "cu-017", "name": "인사동 문화거리 갤러리", "addr": "서울 종로구 인사동길 17", "lat": 37.5749, "lng": 126.9855, "type": "갤러리", "tel": "" },
    { "id": "cu-018", "name": "국립고궁박물관", "addr": "서울 종로구 효자로 12", "lat": 37.5760, "lng": 126.9755, "type": "박물관", "tel": "02-3701-7500", "homepage": "https://www.gogung.go.kr" },
    { "id": "cu-019", "name": "윤동주문학관", "addr": "서울 종로구 창의문로3길 22", "lat": 37.5918, "lng": 126.9650, "type": "문학관", "tel": "02-2148-4175" },
    { "id": "cu-020", "name": "북촌문화센터", "addr": "서울 종로구 계동길 37", "lat": 37.5790, "lng": 126.9850, "type": "문화센터", "tel": "02-2148-1845" }
  ]
}
